[
    {
        "id" : 1,
      "name" : "Krishna Rajesh",
      "city": "Englewood",
      "state" : "NJ",
      "practice" : "HEMA",
      "location" : "HEASC @ 54 Dean"
    },
    {
        "id" : 2,
        "name" : "Kumara Rajesh",
        "city": "Englewood",
        "state" : "NJ",
        "practice" : "HEMA",
        "location" : "HEASC @ 54 Dean"
    },
    {
        "id" : 3,
        "name" : "bhagale Rashmi",
        "city": "Englewood",
        "state" : "NJ",
        "practice" : "HEMA",
        "location" : "HEASC @ 54 Dean"
    },
    {
        "id" : 4,
        "name" : "gowda ramesh",
        "city": "Englewood",
        "state" : "NJ",
        "practice" : "HEMA",
        "location" : "HEASC @ 54 Dean"
    },
    {
        "id" : 5,
        "name" : "smith adam",
        "city": "Englewood",
        "state" : "NJ",
        "practice" : "HEMA",
        "location" : "HEASC @ 54 Dean"
    },
    {
        "id" : 6,
        "name" : "assistant medical",
        "city": "Englewood",
        "state" : "NJ",
        "practice" : "HEMA",
        "location" : "HEASC @ 54 Dean"
    },
    {
        "id" : 7,
        "name" : "staff ASC",
        "city": "Englewood",
        "state" : "NJ",
        "practice" : "HEMA",
        "location" : "HEASC @ 54 Dean"
    },
    {
        "id" : 8,
        "name" : "Jayaraj Apoorva",
        "city": "Englewood",
        "state" : "NJ",
        "practice" : "HEMA",
        "location" : "HEASC @ 54 Dean"
    }
]